 [{"_id":4314388,"name":"Abita Springs","country":"US","coord":{"lon":-90.037582,"lat":30.478531}},
  {"_id":4786352,"name":"Smyth County","country":"US","coord":{"lon":-81.516502,"lat":36.850121}},
  {"_id":4772384,"name":"McMullin","country":"US","coord":{"lon":-81.578171,"lat":36.814281}},
  {"_id":5002348,"name":"Monroe County","country":"US","coord":{"lon":-83.549942,"lat":41.93338}},
  {"_id":5005092,"name":"Patterson Gardens","country":"US","coord":{"lon":-83.430489,"lat":41.918381}},
  {"_id":5014120,"name":"Washtenaw County","country":"US","coord":{"lon":-83.849937,"lat":42.250591}},
  {"_id":5000598,"name":"Manchester","country":"US","coord":{"lon":-84.03772,"lat":42.150318}},
  {"_id":4355939,"name":"Garrett County","country":"US","coord":{"lon":-79.249763,"lat":39.550091}},
  {"_id":4360938,"name":"Loch Lynn Heights","country":"US","coord":{"lon":-79.3731,"lat":39.39315}},
  {"_id":5189414,"name":"Fayette County","country":"US","coord":{"lon":-79.750038,"lat":40.125351}},
  {"_id":5213675,"name":"Star Junction","country":"US","coord":{"lon":-79.763649,"lat":40.062569}}]